{
  "Amsterdam": {
    "name": "Amsterdam",
    "nation": "The Netherlands",
    "continent": "EU",
    "isRegion": false,
    "isDataCenter": true,
    "isPOP": true,
    "isCMS": true,
    "isFed": false,
    "lat": 52.370216,
    "lon": 4.895168,
    "hosts": {"AMS01", "AMS03"},
    "links": {"London", "Frankfurt", "Oslo", "Stockholm"}
  },
  "Ashburn": {
    "name": "Ashburn",
    "state": "NC",
    "nation": "United States",
    "continent": "NA",
    "isRegion": true,
    "isDataCenter": true,
    "isPOP": true,
    "isCMS": false,
    "isFed": true,
    "lat": 36.31291,
    "lon": -80.33603,
    "hosts": {"WDC01", "WDC03", "WDC04", "WDC06", "WDC07"},
    "links": {"Atlanta", "Chicago", "New York", "Amsterdam"}
  },
  "Atlanta": {
    "name": "Atlanta",
    "state": "GA",
    "nation": "United States",
    "continent": "NA",
    "isRegion": false,
    "isDataCenter": false,
    "isPOP": true,
    "isCMS": false,
    "isFed": false,
    "lat": 33.748997,
    "lon": -84.387985,
    "links": {"Ashburn", "Dallas", "Miami"}
  },
  "Barcelona": {
    "name": "Barcelona",
    "nation": "Spain",
    "continent": "EU",
    "isRegion": false,
    "isDataCenter": false,
    "isPOP": false,
    "isCMS": true,
    "isFed": false,
    "lat": 41.385063,
    "lon": 2.173404,
  },
  "Beijing": {
    "name": "Beijing",
    "nation": "China",
    "continent": "AS",
    "isRegion": false,
    "isDataCenter": false,
    "isPOP": false,
    "isCMS": false,
    "isFed": false,
    "lat": 39.904202,
    "lon": 116.407394,
  },
  "Boulder": {
    "name": "Boulder",
    "state": "CO",
    "nation": "United States",
    "continent": "NA",
    "isRegion": false,
    "isDataCenter": false,
    "isPOP": false,
    "isCMS": true,
    "isFed": false,
    "lat": 40.014984,
    "lon": -105.270546,
  },
  "Chantilly": {
    "name": "Chantilly",
    "state": "NC",
    "nation": "United States",
    "continent": "NA",
    "isRegion": false,
    "isDataCenter": true,
    "isPOP": false,
    "isCMS": false,
    "isFed": false,
    "lat": 35.20402,
    "lon": -80.79917,
    "hosts": {"WDC01"},
  },
  "Chennai": {
    "name": "Chennai",
    "nation": "India",
    "continent": "AS",
    "isRegion": false,
    "isDataCenter": true,
    "isPOP": true,
    "isCMS": false,
    "isFed": false,
    "lat": 13.08268,
    "lon": 80.270721,
    "hosts": {"CHE1.00"},
    "links": {"Milan", "Paris", "Singapore"}
  },
  "Chicago": {
    "name": "Chicago",
    "state": "IL",
    "nation": "United States",
    "continent": "NA",
    "isRegion": false,
    "isDataCenter": false,
    "isPOP": true,
    "isCMS": false,
    "isFed": false,
    "lat": 41.878113,
    "lon": -87.629799,
    "links": {"Toronto", "Ashburn", "New York", "Dallas", "Denver", "Seattle"}
  },
  "Dallas": {
    "name": "Dallas",
    "state": "TX",
    "nation": "United States",
    "continent": "NA",
    "isRegion": true,
    "isDataCenter": true,
    "isPOP": true,
    "isCMS": false,
    "isFed": true,
    "lat": 32.776665,
    "lon": -96.796989,
    "hosts": {"DAL01", "DAL02", "DAL05", "DAL06", "DAL07", "DAL08", "DAL09", "DAL10,DAL12", "DAL13"},
    "links": {"Atlanta", "Chicago", "Denver", "Los Angeles", "Querétaro"}
  },
  "Denver": {
    "name": "Denver",
    "state": "CO",
    "nation": "United States",
    "continent": "NA",
    "isRegion": false,
    "isDataCenter": false,
    "isPOP": true,
    "isCMS": false,
    "isFed": false,
    "lat": 39.739235,
    "lon": -104.99025,
    "links": {"Seattle", "San Jose", "Dallas", "Chicago"}
  },
  "Ehningen": {
    "name": "Ehningen",
    "nation": "Germany",
    "continent": "EU",
    "isRegion": false,
    "isDataCenter": false,
    "isPOP": false,
    "isCMS": true,
    "isFed": false,
    "lat": 48.65955,
    "lon": 8.94097,
  },
  "Fareham": {
    "name": "Fareham",
    "nation": "England",
    "continent": "EU",
    "isRegion": false,
    "isDataCenter": false,
    "isPOP": false,
    "isCMS": true,
    "isFed": false,
    "lat": 50.851452,
    "lon": -1.17902,
  },
  "Frankfurt": {
    "name": "Frankfurt",
    "nation": "Germany",
    "continent": "EU",
    "isRegion": true,
    "isDataCenter": true,
    "isPOP": true,
    "isCMS": false,
    "isFed": false,
    "lat": 50.110924,
    "lon": 8.682127,
    "hosts": {"FRA02", "FRA04", "FRA05"},
    "links": {"Amsterdam", "Milan", "Oslo", "Stockholm"}
  },
  "Hong Kong": {
    "name": "Hong Kong",
    "nation": "China",
    "continent": "AS",
    "isRegion": false,
    "isDataCenter": true,
    "isPOP": true,
    "isCMS": false,
    "isFed": false,
    "lat": 22.396427,
    "lon": 114.109497,
    "hosts": {"HKG01"},
    "links": {"Seoul", "Tokyo", "Singapore", "Sydney"}
  },
  "Hortolandia": {
    "name": "Hortolandia",
    "nation": "Brazil",
    "continent": "SA",
    "isRegion": false,
    "isDataCenter": false,
    "isPOP": false,
    "isCMS": true,
    "isFed": false,
    "lat": -22.883141,
    "lon": -47.210918,
  },
  "Houston": {
    "name": "Houston",
    "state": "TX",
    "nation": "United States",
    "continent": "NA",
    "isRegion": false,
    "isDataCenter": true,
    "isPOP": true,
    "isCMS": false,
    "isFed": false,
    "lat": 29.760427,
    "lon": -95.369804,
    "hosts": {"HOU02"},
    "links": {"Dallas", "Miami"}
  },
  "London": {
    "name": "London",
    "nation": "England",
    "continent": "EU",
    "isRegion": true,
    "isDataCenter": true,
    "isPOP": true,
    "isCMS": false,
    "isFed": false,
    "lat": 51.507351,
    "lon": -0.127758,
    "hosts": {"LON02", "LON04", "LON05", "LON06"},
    "links": {"Amsterdam", "Oslo", "Paris", "New York"}
  },
  "Los Angeles": {
    "name": "Los Angeles",
    "state": "CA",
    "nation": "United States",
    "continent": "NA",
    "isRegion": false,
    "isDataCenter": false,
    "isPOP": true,
    "isCMS": false,
    "isFed": false,
    "lat": 34.052235,
    "lon": -118.243683,
    "links": {"Dallas", "Querétaro", "San Jose", "Sydney", "Melbourne", "Singapore"}
  },
  "Makuhari": {
    "name": "Makuhari",
    "nation": "Japan",
    "continent": "AS",
    "isRegion": false,
    "isDataCenter": false,
    "isPOP": false,
    "isCMS": true,
    "isFed": false,
    "lat": 35.659168,
    "lon": 140.057236,
  },
  "Melbourne": {
    "name": "Melbourne",
    "nation": "Australia",
    "continent": "AUS",
    "isRegion": false,
    "isDataCenter": true,
    "isPOP": true,
    "isCMS": false,
    "isFed": false,
    "lat": -37.813629,
    "lon": 144.963058,
    "hosts": {"MEL01"},
    "links": {"Sydney", "Perth", "Los Angeles"}
  },
  "Miami": {
    "name": "Miami",
    "state": "FL",
    "nation": "United States",
    "continent": "NA",
    "isRegion": false,
    "isDataCenter": false,
    "isPOP": true,
    "isCMS": false,
    "isFed": false,
    "lat": 25.761681,
    "lon": -80.191788,
    "links": {"Atlanta", "Houston", "Sao Paulo"}
  },
  "Milan": {
    "name": "Milan",
    "nation": "Italy",
    "continent": "EU",
    "isRegion": false,
    "isDataCenter": true,
    "isPOP": true,
    "isCMS": false,
    "isFed": false,
    "lat": 45.464203,
    "lon": 9.189982,
    "hosts": {"MIL01"},
    "links": {"Paris", "Frankfurt", "Chennai"}
  },
  "Montpelier": {
    "name": "Montpelier",
    "nation": "France",
    "continent": "EU",
    "isRegion": false,
    "isDataCenter": false,
    "isPOP": false,
    "isCMS": true,
    "isFed": false,
    "lat": 43.60829,
    "lon": 3.8796,
  },
  "Montreal": {
    "name": "Montreal",
    "nation": "CA",
    "continent": "NA",
    "isRegion": false,
    "isDataCenter": true,
    "isPOP": true,
    "isCMS": false,
    "isFed": false,
    "lat": 45.496029,
    "lon": -73.569481,
    "hosts": {"MON01"},
    "links": {"Toronto", "New York"}
  },
  "New York": {
    "name": "New York",
    "state": "NY",
    "nation": "United States",
    "continent": "NA",
    "isRegion": false,
    "isDataCenter": false,
    "isPOP": true,
    "isCMS": false,
    "isFed": false,
    "lat": 40.712776,
    "lon": -74.005974,
    "links": {"Ashburn", "Chicago", "Montreal", "London"}
  },
  "Oslo": {
    "name": "Oslo",
    "nation": "Norway",
    "continent": "EU",
    "isRegion": false,
    "isDataCenter": true,
    "isPOP": true,
    "isCMS": false,
    "isFed": false,
    "lat": 59.913868,
    "lon": 10.752245,
    "hosts": {"OSL01"},
    "links": {"Stockholm Frankfurt", "Amsterdam", "London"}
  },
  "Paris": {
    "name": "Paris",
    "nation": "France",
    "continent": "EU",
    "isRegion": false,
    "isDataCenter": true,
    "isPOP": true,
    "isCMS": false,
    "isFed": false,
    "lat": 48.85689,
    "lon": 2.35085,
    "links": {"London", "Milan", "Chennai"}
  },
  "Perth": {
    "name": "Perth",
    "nation": "Australia",
    "continent": "AUS",
    "isRegion": false,
    "isDataCenter": false,
    "isPOP": true,
    "isCMS": false,
    "isFed": false,
    "lat": -31.950527,
    "lon": 115.860458,
    "links": {"Melbourne", "Sydney", "Singapore"}
  },
  "Portsmouth": {
    "name": "Portsmouth",
    "nation": "England",
    "continent": "EU",
    "isRegion": false,
    "isDataCenter": false,
    "isPOP": false,
    "isCMS": true,
    "isFed": false,
    "lat": 50.798908,
    "lon": -1.09116,
  },
  "Poughkeepsie": {
    "name": "Poughkeepsie",
    "state": "NY",
    "nation": "United States",
    "continent": "NA",
    "isRegion": false,
    "isDataCenter": false,
    "isPOP": false,
    "isCMS": true,
    "isFed": false,
    "lat": 41.700371,
    "lon": -73.920967,
  },
  "Querétaro": {
    "name": "Querétaro",
    "nation": "Mexico",
    "continent": "NA",
    "isRegion": false,
    "isDataCenter": true,
    "isPOP": true,
    "isCMS": false,
    "isFed": false,
    "lat": 20.59334,
    "lon": -100.38974,
    "hosts": {"MEX01"},
    "links": {"Dallas", "Los Angeles"}
  },
  "Raleigh": {
    "name": "Raleigh",
    "state": "NC",
    "nation": "United States",
    "continent": "NA",
    "isRegion": false,
    "isDataCenter": false,
    "isPOP": false,
    "isCMS": true,
    "isFed": false,
    "lat": 35.779591,
    "lon": -78.638176,
  },
  "San Jose": {
    "name": "San Jose",
    "state": "CA",
    "nation": "United States",
    "continent": "NA",
    "isRegion": false,
    "isDataCenter": true,
    "isPOP": true,
    "isCMS": false,
    "isFed": false,
    "lat": 37.338207,
    "lon": -121.88633,
    "hosts": {"SJC01", "SJC03", "SJC04"},
    "links": {"Los Angeles", "Seattle", "Denver", "Tokyo"}
  },
  "Sao Paulo": {
    "name": "Sao Paulo",
    "nation": "Brazil",
    "continent": "SA",
    "isRegion": false,
    "isDataCenter": true,
    "isPOP": true,
    "isCMS": false,
    "isFed": false,
    "lat": -23.55052,
    "lon": -46.633308,
    "hosts": {"SAO01"},
    "links": {"New York", "Miami", "Los Angeles"}
  },
  "Seattle": {
    "name": "Seattle",
    "state": "WA",
    "nation": "United States",
    "continent": "NA",
    "isRegion": false,
    "isDataCenter": true,
    "isPOP": true,
    "isCMS": false,
    "isFed": false,
    "lat": 47.606209,
    "lon": -122.332069,
    "hosts": {"SEA01"},
    "links": {"Chicago", "Denver", "San Jose"}
  },
  "Seoul": {
    "name": "Seoul",
    "nation": "Korea",
    "continent": "AS",
    "isRegion": false,
    "isDataCenter": true,
    "isPOP": true,
    "isCMS": false,
    "isFed": false,
    "lat": 37.566536,
    "lon": 126.977966,
    "hosts": {"SEO01"},
    "links": {"Tokyo", "Hong Kong"}
  },
  "Singapore": {
    "name": "Singapore",
    "nation": "Singapore",
    "continent": "AS",
    "isRegion": false,
    "isDataCenter": true,
    "isPOP": true,
    "isCMS": true,
    "isFed": false,
    "lat": 1.352083,
    "lon": 103.819839,
    "hosts": {"SNG01"},
    "links": {"Perth", "Los Angeles", "Tokyo", "Hong Kong", "Chennai"}
  },
  "Stockholm": {
    "name": "Stockholm",
    "nation": "Sweden",
    "continent": "EU",
    "isRegion": false,
    "isDataCenter": false,
    "isPOP": true,
    "isCMS": false,
    "isFed": false,
    "lat": 59.329323,
    "lon": 18.068581,
  },
  "Sydney": {
    "name": "Sydney",
    "nation": "Australia",
    "continent": "AUS",
    "isRegion": true,
    "isDataCenter": true,
    "isPOP": true,
    "isCMS": true,
    "isFed": false,
    "lat": -33.86882,
    "lon": 151.20929,
    "hosts": {"STD01", "SYD04", "SYD05"},
    "links": {"Melbourne", "Perth", "Hong Kong", "Tokyo", "Los Angeles"}
  },
  "Tokyo": {
    "name": "Tokyo",
    "nation": "Japan",
    "continent": "AS",
    "isRegion": true,
    "isDataCenter": true,
    "isPOP": true,
    "isCMS": false,
    "isFed": false,
    "lat": 35.689487,
    "lon": 139.691711,
    "hosts": {"TKO02", "TKO04", "TKO05"},
    "links": {"Seoul", "Hong Kong", "Singapore", "Sydney", "San Jose"}
  },
  "Toronto": {
    "name": "Toronto",
    "nation": "CA",
    "continent": "NA",
    "isRegion": false,
    "isDataCenter": true,
    "isPOP": true,
    "isCMS": true,
    "isFed": false,
    "lat": 43.65189,
    "lon": -79.381706,
    "hosts": {"TOR01"},
    "links": {"Chicago", "Montreal"}
  },
  "Winterthur": {
    "name": "Winterthur",
    "nation": "Switzerland",
    "continent": "EU",
    "isRegion": false,
    "isDataCenter": false,
    "isPOP": false,
    "isCMS": true,
    "isFed": false,
    "lat": 47.499882,
    "lon": 8.72616,
    "links": {"Oslo", "Amsterdam", "Frankfurt"}
  }
}